
{"rows": [{"name": "大石西路出口", "labelid": 1, "longitude": "104.028617", "latitude": "30.653997", "type": "0", "id": "31"}, {"name": "家园南路入口", "labelid": 4, "longitude": "111111111", "latitude": "333333333", "type": "0", "id": "32"}, {"name": "抚琴西路出口", "labelid": 1, "longitude": "104.032528", "latitude": "30.684089", "type": "0", "id": "33"}, {"name": "营兴街入口", "labelid": 4, "longitude": "104.040082", "latitude": "30.691069", "type": "0", "id": "34"}, {"name": "茶店子出口", "labelid": 7, "longitude": "104.045639", "latitude": "30.696193", "type": "0", "id": "35"}, {"name": "沙湾路出口", "labelid": 1, "longitude": "104.049497", "latitude": "30.698886", "type": "0", "id": "36"}, {"name": "府河市场入口", "labelid": 4, "longitude": "104.07197", "latitude": "30.700944", "type": "0", "id": "37"}, {"name": "北站东二路出口", "labelid": 2, "longitude": "104.085869", "latitude": "30.700268", "type": "0", "id": "38"}, {"name": "北星大道出口", "labelid": 2, "longitude": "104.088164", "latitude": "30.700493", "type": "0", "id": "39"}, {"name": "北新干道入口", "labelid": 5, "longitude": "104.087822", "latitude": "30.700149", "type": "0", "id": "40"}, {"name": "红花北路入口", "labelid": 1, "longitude": "104.09346", "latitude": "30.698849", "type": "0", "id": "41"}, {"name": "府青路出口", "labelid": 1, "longitude": "104.102541", "latitude": "30.69419", "type": "0", "id": "42"}, {"name": "府青路入口", "labelid": 4, "longitude": "104.10895", "latitude": "30.690933", "type": "0", "id": "43"}, {"name": "建设路出口", "labelid": 1, "longitude": "104.11536", "latitude": "30.68009", "type": "0", "id": "44"}, {"name": "杉板桥路出口", "labelid": 2, "longitude": "104.120633", "latitude": "30.668085", "type": "0", "id": "45"}, {"name": "杉板桥路入口", "labelid": 5, "longitude": "104.119376", "latitude": "30.669235", "type": "0", "id": "46"}, {"name": "双林北支路入口", "labelid": 4, "longitude": "104.121137", "latitude": "30.663065", "type": "0", "id": "47"}, {"name": "双庆路双桥路出口", "labelid": 1, "longitude": "104.119027", "latitude": "30.653209", "type": "0", "id": "48"}, {"name": "牛市口入口", "labelid": 4, "longitude": "104.114541", "latitude": "30.646051", "type": "0", "id": "49"}, {"name": "龙舟路出口", "labelid": 1, "longitude": "104.111947", "latitude": "30.641803", "type": "0", "id": "50"}, {"name": "莲桂东路入口", "labelid": 5, "longitude": "104.109449", "latitude": "30.638268", "type": "0", "id": "51"}, {"name": "净居寺路出口", "labelid": 1, "longitude": "104.106647", "latitude": "30.633242", "type": "0", "id": "52"}, {"name": "科华中路出口", "labelid": 7, "longitude": "104.082603", "latitude": "30.626215", "type": "0", "id": "53"}, {"name": "人民南路出口", "labelid": 3, "longitude": "104.065998", "latitude": "30.626087", "type": "0", "id": "54"}, {"name": "人民南路入口", "labelid": 6, "longitude": "104.068916", "latitude": "30.626212", "type": "0", "id": "55"}, {"name": "创业路出口", "labelid": 7, "longitude": "104.054485", "latitude": "30.630997", "type": "0", "id": "56"}, {"name": "创业路入口", "labelid": 5, "longitude": "104.046788", "latitude": "30.622428", "type": "0", "id": "57"}, {"name": "高升桥路 出口", "labelid": 1, "longitude": "104.045041", "latitude": "30.635402", "type": "0", "id": "58"}, {"name": "红牌楼路入口", "labelid": 4, "longitude": "104.0288", "latitude": "30.652677", "type": "0", "id": "59"}, {"name": "武侯大道出口", "labelid": 7, "longitude": "104.032635", "latitude": "30.647543", "type": "0", "id": "60"}]}